gsp_id,latitude,longitude,gsp_name
0,54.08963881116971,-2.6122022827776883,National
1,50.44003470305086,-3.7644377670781655,ABHA1
2,56.3192750619218,-3.4005265575652954,ABNE_P
3,51.43808422153952,-3.351979688212789,ABTH_1
4,51.533269144562354,-0.3157650310809993,ACTL_2|CBNK_H|GREE_H|PERI_H|WESA_H
6,57.75549669518062,-4.178391894854555,ALNE_P
7,51.652056665534985,-2.890109160760172,ALST_3|USKM_1
8,50.89395266240477,-4.110539453458316,ALVE1
9,51.74264297361287,-0.864301464578411,AMEM_1
10,56.56654926615298,-2.667786966312724,ARBR_P
11,56.22816997193032,-4.960161517298736,ARDK_P|CLAC_P
12,57.53533727961834,-7.2236788637545715,ARMO_P|HARG_P
13,50.820703364444284,-2.876030976034496,AXMI1
14,55.43273942174891,-4.624768712720423,AYRR
15,55.8915872812244,-3.703436600447116,BAGA
16,56.042403093423474,-3.754431978942535,BAIN
18,57.51454892311517,-4.617054339361116,BEAU_P|ORRI_P
19,51.42397872657573,-0.027748397859061,BEDDT1
20,51.33189227515629,-0.0771327222108515,BEDD_1
21,57.47959121743924,-2.9222497001735888,BERB_P|CAIF_P|DALL_P|GLEF_P|KEIT_P
22,55.76050554174962,-2.094284831012337,BERW
23,52.28402572798036,-1.5300003135261755,BESW_1
24,53.07687651725219,-0.2217793420288265,BICF_1
25,53.3547747668358,-3.0688264873995927,BIRK_1
26,52.22223486449433,-3.137423634034209,BISW_1
26,52.218210486691085,-2.6388425710203234,BISW_1
27,55.130353424616295,-1.71739791603742,BLYTB1
28,55.42130656128855,-1.88347527144236,BLYTH132
29,57.15923259629592,-3.9094329206912057,BOAG_P
30,51.01810554514916,-0.2669587177601674,BOLN_1
31,56.01150121375814,-3.9589387860707377,BONN
32,50.932659849232486,-1.2398385948907358,BOTW_1
33,56.25689506591387,-3.977882092684554,BRAC_P
34,51.86532201830162,0.5603360755242933,BRAI_1
35,55.869757049299885,-4.3884103309186,BRAP
36,53.96584698431661,-1.950421301061712,BRAW_1
37,53.39178644286348,-2.126037872820505,BRED_1
38,52.21736801391653,1.065407415162818,BRFO_1|CLT03
39,56.82360684952351,-2.726790559822077,BRID_P
40,51.67891012759227,-0.1057445854490665,BRIM_1
40,51.6181537622486,0.0660581392933832,BRIM_1
41,51.2711326256448,-1.048962512335477,BRLE_1|FLEE_1
42,57.2849964408419,-5.6881020235846975,BROA_P
43,58.08694262909074,-3.9084399636570137,BROR_P
44,55.96264228105149,-3.4422801137604324,BROX
45,51.103787857246274,-2.873443982096036,BRWA1
46,56.44461518236795,-3.69025706987644,BUMU_P
47,52.25128645739629,0.2349911359045244,BURM_1
48,52.74320263427347,-2.128998354753404,BUSH_1
49,52.56346311284605,-1.9296895722285088,BUST_1
50,55.55268476912986,-5.467038477601815,CAAD_P
51,54.96070762929567,-3.979584796675848,CAFA|EAST|GLLE|KEOO|TONG1
52,53.66359639249208,-0.8540387999983555,CAMB_01
54,53.214993915153045,-2.8633970457080498,CAPEA1
55,51.521578313274645,-3.144648783670445,CARE_1
56,53.426850831484536,-2.368941781229396,CARR_1
57,58.3775531200614,-4.852959586899145,CASS_P
58,55.845568861706695,-4.175942637422767,CATY
59,57.187120709543166,-4.91258681841331,CEAN_P
60,52.981387004123285,-2.172016223579702,CELL_1
60,53.07845990543253,-2.495170720446052,CELL_1
61,55.19997176174613,-3.170828005427345,CHAP
62,56.47283529998964,-3.0893194464614786,CHAR_P
63,55.84914607867533,-4.263643527013163,CHAS
64,50.72235299664698,-2.491506552254701,CHIC_1
65,51.37819973393606,-0.3318259076456736,CHSI_1
66,53.178759730003904,-1.3162600064879608,CHTE_1
67,51.52034386329344,-0.0957268414743094,CITR_1
68,57.14104595830874,-2.0859741958695146,CLAY_P
69,55.8156815300479,-4.141655483707306,CLYM
70,55.86154651070265,-4.018212307211565,COAT
71,55.91200338388031,-2.8415726656253857,COCK
72,53.18688507343416,-3.289880929932956,CONQA1|SASA
73,56.66069491701603,-3.4489055801283204,COUA_P
74,52.407262206789206,-1.2735773611999002,COVE_1
76,55.40395704597853,-4.228795907145929,COYL
77,57.09475394025554,-2.2389219880991167,CRAI_P
78,53.93245176565361,-0.4944843176701637,CREB_1
79,55.78421905508972,-4.430459875753335,CROO
80,55.943139910088185,-3.960080396349294,CUMB
81,56.32726447421096,-2.9934193164602867,CUPA
82,55.88668046195203,-3.308107345331979,CURR
83,55.84289581293601,-4.203789814834065,DALM3
84,55.93603990080797,-4.715447969500993,DEVM
85,56.13995027756638,-3.725603863196994,DEVO
86,55.96129888348883,-3.209001483336107,DEWP
87,58.39108295190545,-4.140664410968807,DOUN_P
88,52.78993909654729,-1.6084944671620496,DRAK_1
89,53.77760076193877,-1.0015010400119273,DRAX_1
90,55.910914700020655,-3.564974707905877,DRCR
91,55.9619374690876,-4.370450430997814,DRUM
92,58.300274463375466,-3.437838822154408,DUBE_P
93,56.46420392126056,-2.972629194693173,DUDH_P|GLAG_P
94,57.42968010443356,-6.388675642906801,DUGR_P
95,55.17109924756093,-3.7983736330955846,DUMF
96,55.96855072667777,-2.5622141208522926,DUNB
97,56.0898723370042,-3.533086910086749,DUNF|TOWH
98,55.94195100651785,-5.107136179876156,DUNO_P
99,57.311027166682045,-2.110263770286504,DYCE_P
100,51.49551579528853,-0.3157262119983987,EALI_6
101,52.28984780451592,-0.2135772009589333,EASO_1
102,55.70020848294969,-2.4151083635262784,ECCL
103,52.094114235568256,-1.341495827096136,ECLA_1
103,52.04407024462882,-0.9917591600360915,ECLA_1
104,55.91574449635738,-4.124130618913632,EERH
105,55.75007418134042,-4.1733927702792535,EKIL
106,55.745557653631664,-4.178087759195965,EKIS
107,55.82987872949272,-4.453568311512495,ELDE
108,57.64452734903144,-3.2841024936735304,ELGI_P
109,53.65780743780062,-1.8663007762618165,ELLA_1
110,51.70652345319911,-0.3451233050755009,ELST_1
111,52.65677012118319,-1.240092363452339,ENDE_1
112,55.903472548868926,-4.494342900787294,ERSK
113,50.81638962477598,-3.458750444375182,EXET1
114,57.31496175811048,-4.898012883204954,FASN_P
115,57.14603358214549,-4.656416248502616,FAUG_P
116,50.7129739959324,-1.332675422002259,FAWL_1
117,52.08746757100222,-1.8337040208784512,FECK_6
118,53.66384792517516,-1.3030581429680737,FERRA2
119,53.82816173028301,-1.3281344019051804,FERRB_M
120,57.204697206878045,-2.4488425110168666,FETT_P|KINT_P|ROTI3
121,56.89470960481083,-2.4175087840265825,FIDD_P
122,53.28588192966387,-2.476146187912803,FIDF_1
123,55.872140595681046,-4.282805922783608,FINN
124,55.02297360872444,-2.2361487939179963,FOUR_1
125,57.66044236166501,-2.021001791579356,FRAS_P
126,53.29765671548889,-2.6876337334622007,FROD_1
127,56.798842984562775,-5.4050963695456575,FWIL_P
128,55.58765540777771,-2.9379283485566323,GALA
129,55.74135125585799,-4.304520690845036,GIFF
130,54.907458748636685,-4.939511958400402,GLLU
131,56.08916422150235,-3.2246468299614595,GLNI
132,56.222839422958025,-3.193192334618268,GLRO
133,55.93537672678055,-3.2246548093564167,GORG
134,55.85370802768959,-4.317436318186466,GOVA
135,52.46109331084557,-0.7637682338776014,GREN_1
135,52.15381331392555,-0.491219615785168,GREN_1
136,53.58529107681711,-0.2089950820378724,GRIW_1
137,55.98016982821149,-3.658962245294147,GRMO
138,57.80155030201858,-5.217541988954003,GRUB_P
141,55.82584775435126,-4.278526731148746,HAGR
142,52.61684164169761,-1.621771198299554,HAMHC1
142,52.44550740524346,-1.747241882466772,HAMHC1
144,54.68603767111161,-1.3125904475262942,HARM_6
145,55.40888213233925,-2.6773829603585413,HAWI
146,54.81581929060662,-1.4065193341718367,HAWP_6
147,56.0313584776422,-4.763701335171755,HELE
148,54.03866304702577,-2.748401113679249,HEYS_1|HEYS1|ORMO
149,55.72382887508881,-4.904417268325636,HUER
150,51.44072071933742,0.0518550664711497,HURS_1
151,51.55591553466697,-3.0367335598732823,IMPK_1
152,50.3167835833021,-5.061421841784735,INDQ1
153,56.03189881775121,-3.3966823424603887,INKE
154,57.35062673343309,-4.253720985536926,INNE_P
155,51.64840508069375,-2.324453575126409,IROA1
155,51.46624676423872,-2.574953488216825,IROA1
156,52.60537243032258,-2.5411836677776125,IRONB1
158,51.543169185419735,-0.566394097419753,IVER_1|IVER_6
159,55.84999133191136,-4.626730240376302,JOHN
160,53.32306745449083,-1.5191584087207934,JORD_3
161,55.73047080939333,-3.238923427768668,KAIM
162,53.46028247255899,-0.3805384522739808,KEAD_1
164,51.34465156381733,0.7930716816530833,KEMS_1
165,53.5392805302744,-2.9760007670182578,KIBY_1
166,53.56372082246288,-2.804156923236324,KIBY_G|WASF_1
167,55.95804491040866,-4.254273719106542,KIER
168,56.45962307909881,-4.3639703302012665,KIIN_P
169,55.93563467701252,-4.410811645157029,KILB
170,55.57244426819291,-4.4769348576630215,KILS
171,55.66068922619456,-4.516479561360269,KILT
172,55.61304657333313,-4.653413827220577,KILW
173,56.703505808461344,-5.014492347940253,KINL_P
174,51.378693056645226,0.4680305065724106,KINO_1
175,53.78872571274187,-1.591567835676376,KIRKB1
176,52.415411912058254,-1.973391513124268,KITW_1
177,54.13675274451247,-1.457047803593595,KNAR
178,54.51692060313737,-0.9847845510069452,LACK_6
179,58.04642785687051,-4.471866129054875,LAIR_P
180,51.43164278475418,-0.5028806852001696,LALE1SG003
181,50.48187037711092,-4.300647661572879,LAND1
182,52.776473151621474,-3.1562080891306343,LEGA_1
183,56.22810924657775,-2.8675414971869078,LEVE
184,55.85131823529628,-3.474282752958459,LING
185,55.58044607836345,-3.7114292705420806,LINM
186,53.37636760583304,-2.9154472446484907,LISD_1
187,51.45828588213486,0.1736645348777072,LITT_C
188,51.42926478053647,0.1999691071429493,LITT_J
189,51.53448115032013,-0.1691472755187842,LODR_6
190,51.60830366944523,-0.7243233649827464,LOUD_H
191,50.868899338669735,-0.8527120094014068,LOVE_1
192,56.720938174532506,-2.9845559449195616,LUNA_P
193,56.4922133827639,-3.00781949010967,LYND_P
194,53.247914793516266,-2.111644369218065,MACC_3
195,57.64755649324516,-2.517342213787846,MACD_P
196,51.62156306398633,-3.620648320050625,MAGA_6
197,50.90026284126791,-1.9877317396203236,MANN_1
198,55.209843502483096,-4.712057209617576,MAYB
199,51.3894611951409,-2.362164376108041,MELK_1
199,51.34244019969087,-1.9975980682779744,MELK_1
200,56.51112917951864,-2.8730117905540578,MILC_P
201,51.60221923995464,-0.2202059349169666,MILH_1
202,51.67644821808259,-1.7957390076491533,MITY_1
203,58.3505390784021,-3.362486355461462,MYBS_P
204,57.34713709732948,-3.7573746151069423,NAIR_P
205,55.81064351193535,-3.784821092780125,NEAR
206,52.48974521622274,-1.8394873614703469,NECE_1
207,53.41454904806944,-1.590628958178956,NEEP_3
208,54.93917959522585,-4.479507868708184,NETS
209,51.476935076962576,-0.0663325224126192,NEWX_6
210,51.26072929386029,0.2180801836745549,NFLE
211,51.49436068024746,-0.4058729212742286,NHYD_6
212,50.96248222598064,0.3476876957142052,NINF_1
213,53.361977534810514,-1.5253870446821265,NORL_3
214,52.66983024710022,1.3159754338251402,NORM_1|SALL1
215,54.36941635435938,-1.6732221221457353,NORT_1
216,51.00809482534686,-1.4609379485947775,NURS_1
217,52.53760983928634,-2.023902699019802,OCKH_1
218,54.882229423686695,-1.4531939744570876,OFFE_3
219,52.49518055864501,-2.033314448304375,OLDB_1
220,54.21508577099037,-0.8126132522501774,OSBA_1
221,53.93377569502945,-2.3224864358978228,PADIB1
222,55.84558146428335,-4.423040673643031,PAIS
223,55.87743430376131,-4.31856020297157,PART
224,57.51658282359483,-1.8635519663425164,PEHG_P
226,51.99912460431608,0.413630040198398,PELH_1
227,51.824136594999246,-4.944955892936567,PEMB_1
228,53.79971218214435,-2.6298343227434176,PENE_1
229,52.52376241761541,-2.1910095041691084,PENN_1
230,53.14740219478101,-3.889203060834253,PENT_1
231,53.76545633186793,-2.814091515117885,PENW_1|STAH_1|WABO
232,57.19234624014676,-2.134166610667655,PERS_P
233,53.41702846630644,-1.4480296022494092,PITS_3
234,55.86234369330349,-3.0601904691609945,POOB
235,53.993205517841496,-1.1938220183793355,POPP_3
236,55.91981875679485,-5.828821479600449,PORA_P
237,55.88096907402697,-4.229217323015964,PORD
238,51.50489727065147,-3.631186333294086,PYLE_1
239,57.06982913711304,-5.248445934284168,QUOI_P
240,53.463160667183416,-2.577855170172928,RAIN_1
240,53.42063414260714,-2.77651119934899,RAIN_1
241,56.619638633250176,-4.687772958825981,RANN_P
242,52.03711033604181,-3.3135008754317083,RASS_1
243,52.80671866512461,-1.100545633926694,RATS_1
244,55.73923555844214,-3.96183810370224,RAVE|WISH
245,51.713093588642735,0.7294142316345537,RAYL_1
246,51.56372755804647,0.0732324772350462,REBR_3
247,56.15295526005545,-3.1322714901050803,REDH
248,57.05661543821305,-2.164476879564778,REDM_P
249,53.68920363896892,-2.1703529938926733,ROCH_1
250,52.72086478859024,-1.89694402267154,RUGEB1
251,51.7740202562902,0.0516746010475004,RYEH_1
252,55.741787677679966,-4.778280352306255,SACO
253,54.62917547212708,-1.2078993807812235,SALH_1
254,53.69986714566077,-0.0663649057244544,SALT_1
255,55.84592009625554,-4.269427538837934,SANX
256,52.95383071983422,-1.077058700039875,SBAR
257,51.31898353214815,-2.678885381721858,SEAB1|SAFO_1
258,51.11553917893831,0.925164578181104,SELL_1
259,57.57671076492435,-1.8560288241550256,SFEG_P
260,56.36205100970298,-4.052377838223984,SFIL_P
261,53.36570541481059,-1.446425537653046,SHEC_3
262,57.88627804263569,-4.5055136795287485,SHIN_P
263,55.9740922408038,-3.186772220787207,SHRU
264,52.66457251151069,-2.828101971749989,SHRW_1
265,55.94335586261749,-3.290488197400432,SIGH
266,51.51064148475432,-0.1622337006142051,SJOW_1
267,53.75284818098862,-1.6079925552360683,SKLGB1
268,56.24262022672907,-4.682140587525168,SLOY_P
269,53.35025152777798,-2.2507141480484743,SMAN_1
270,55.915463169967424,-4.85065532133292,SPAV
271,54.64837204623935,-1.8628196867860023,SPEN_1
272,54.98447127059795,-1.4357705095008697,SSHI_3
273,53.424912000598944,-1.9679493184713983,STAL_1
274,53.15639109592004,-0.8433988434893025,STAY_1
275,54.973612683743504,-1.7115763364872605,STEN_1
276,55.02638273583033,-2.022336000342945,STES_1
277,55.76148587441022,-4.060965407764368,STHA
278,56.10211886383,-3.95430268721051,STIR
279,56.10723440034471,-4.458485981004526,STLE
279,55.972113328815,-4.541949575035702,STLE
280,51.94826003215601,-0.588791998422816,SUND_1
281,51.93390115841123,-4.103833546259879,SWAN_1
281,52.50007337612106,-3.93134009542433,SWAN_1
282,57.1019819355242,-3.087712073520917,TARL_P
283,51.0780292780722,-3.3949402305552154,TAUN1
284,56.4260027646258,-5.699875927265165,TAYN_P
285,55.97732687009469,-3.2587977756969457,TELR
286,53.41305093346341,-1.3347994553291616,TEMP_3
287,53.54669171383443,-1.1243185147687622,THOM_6
288,58.87657704161744,-3.124148528923723,THSO_P
289,53.40585901883456,-1.1994965451144957,THUR_6
290,51.53316759834034,0.4307206731528485,TILBB_1
291,51.62883574072178,-0.1007347528925121,TOTT_1
292,52.87172276662305,-3.905439887897443,TRAW_1
293,56.72626921792215,-3.9511218314765126,TUMB_P
294,55.02390769612794,-1.508432467575152,TYNE_1|TYNE_2
295,51.64823921356405,-3.357591754560714,UPPB_1|UPPB_3
296,51.86315905834341,-2.3036575971561613,WALH_1
297,52.66137562887857,0.4067405775272749,WALP_1
298,52.82828095576041,-0.1501916977695003,WALP_B
299,51.59832998545153,0.3010907960322155,WARL_1
300,51.6906124189162,-0.5494849974147957,WATFS_1
301,54.93643971416798,-1.4767694277848693,WBOL_6
302,53.229274335144765,-0.5261858943454089,WBUR_1
303,56.13026196129539,-3.3105648817101585,WFIE
304,55.86251777228308,-4.275797333877206,WGEO
305,53.54358955525888,-2.151274612810386,WHGA_1
306,55.91746615607922,-3.203140139928447,WHHO
307,53.43241149956883,-1.4085029008523986,WIBA_3
308,52.583540960553215,-2.055033560687616,WIEN_1
309,53.01663119895516,-1.595017240862427,WILL_1
311,57.16008087099281,-2.103590491148532,WIOW_P
312,53.50179839128132,-1.596034721872822,WMEL_1
313,57.15092751295872,-2.20592832387976,WOHI_P
314,51.47995431573906,0.308393563343216,WTHU31
315,51.28128461495207,-0.4509546057183126,WWEY_1
316,53.28951826165598,-4.381943940368632,WYLF_1
317,51.97231388471095,-0.1421743312081999,WYMOM_1
318,51.54007958431133,-0.2107339421907338,ACTL_C
319,50.94295136686015,-2.5106407776977915,AXMI_H
320,51.60237535544768,0.151766260017922,BARKR_A
321,51.532673503179154,0.0529010039966497,BARKR_C
322,51.51274736954085,0.1006255069687281,BARKW3
322,51.54297444377527,0.1528126320802386,BARKW3
323,51.2681070224882,0.9610054615494718,CANTN1
324,51.74581970515361,-1.2938600022171722,COWL_1
325,51.938720608806726,-1.1666015393142657,ECLA_H
326,51.54886298865138,-0.0329409318444972,HACK_1
327,51.58214160338018,-0.0389769145383285,HACK_6
328,55.08990865437656,-2.467314436654181,HARK_1|RRIG
328,54.64977539800569,-3.1223603752345443,HARK_1|RRIG
329,54.47641194096296,-2.6417630057043184,HUTT_1
330,51.55728459423262,-0.1264549333179466,ISLI_1
331,53.57711357097219,-2.4297622089106072,KEAR_1
332,53.53106538748179,-2.3633743141956582,KEAR_3
333,57.47424515967134,-1.8321972726477185,PEHS_P
334,51.29815195360522,1.3386118166387162,RICH_J|RICH1
335,58.182770804859146,-6.615150275300848,STOR_P
336,57.53068294028634,-2.1747878085365397,STRI_P
337,54.84122778851315,-4.054798567596902,TONG
338,51.51227094829607,0.0134917936693069,WHAM_1
339,51.48448577249682,-0.1182969119500739,WIMBN1
340,51.43244301508865,-0.1960990156186582,WIMBS1
341,51.55555597739949,-0.2849419901856265,WISD_1
341,51.521179439470686,-0.2318851309327799,WISD_1
342,51.50900196788579,-0.2355254219602917,WISD_6
